$GPRMC,102554.00,A,3708.92456,N,08034.71688,W,0.004,,080521,,,D*65
$GPVTG,,T,,M,0.004,N,0.007,K,D*25
$GPGGA,102554.00,3708.92456,N,08034.71688,W,2,10,0.92,590.2,M,-33.3,M,,0000*6F
$GPGSA,A,3,46,04,16,22,31,32,03,26,29,51,,,1.80,0.92,1.55*0B
$GPGSV,3,1,12,03,44,274,40,04,31,312,41,16,52,195,47,22,40,235,44*73
$GPGSV,3,2,12,26,79,158,45,27,01,172,,29,17,060,30,31,52,047,50*77
$GPGSV,3,3,12,32,20,125,38,46,24,242,41,48,21,245,39,51,39,220,41*7C
$GPGLL,3708.92456,N,08034.71688,W,102554.00,A,D*76
$GPTXT,01,01,02,u-blox ag - www.u-blox.com*50
$GPTXT,01,01,02,HW  UBX-G70xx   00070000 FF7FFFFFo*69
$GPTXT,01,01,02,ROM CORE 1.00 (59842) Jun 27 2012 17:43:52*59
$GPTXT,01,01,02,PROTVER 14.00*1E
$GPTXT,01,01,02,ANTSUPERV=AC SD PDoS SR*20
$GPTXT,01,01,02,ANTSTATUS=OK*3B
$GPTXT,01,01,02,LLC FFFFFFFF-FFFFFFFF-FFFFFFFF-FFFFFFFF-FFFFFFFD*2C
$GPRMC,102555.00,A,3708.92454,N,08034.71684,W,0.024,,080521,,,D*68
$GPVTG,,T,,M,0.024,N,0.045,K,D*21
$GPGGA,102555.00,3708.92454,N,08034.71684,W,2,10,0.92,590.2,M,-33.3,M,,0000*60
$GPGSA,A,3,46,04,16,22,31,32,03,26,29,51,,,1.80,0.92,1.55*0B
$GPGSV,3,1,12,03,44,274,40,04,31,312,42,16,52,195,47,22,40,235,45*71
$GPGSV,3,2,12,26,79,158,45,27,01,172,,29,17,060,29,31,52,047,50*7F
$GPGSV,3,3,12,32,20,125,38,46,24,242,41,48,21,245,39,51,39,220,41*7C
$GPGLL,3708.92454,N,08034.71684,W,102555.00,A,D*79
$GPRMC,102556.00,A,3708.92452,N,08034.71679,W,0.001,,080521,,,D*68
$GPVTG,,T,,M,0.001,N,0.002,K,D*25
$GPGGA,102556.00,3708.92452,N,08034.71679,W,2,10,0.92,590.3,M,-33.3,M,,0000*66
$GPGSA,A,3,46,04,16,22,31,32,03,26,29,51,,,1.80,0.92,1.55*0B
$GPGSV,3,1,12,03,44,274,40,04,31,312,42,16,52,195,47,22,40,235,45*71
$GPGSV,3,2,12,26,79,157,45,27,01,172,,29,17,060,29,31,52,047,50*70
$GPGSV,3,3,12,32,20,125,38,46,24,242,41,48,21,245,39,51,39,220,41*7C
$GPGLL,3708.92452,N,08034.71679,W,102556.00,A,D*7E
$GPRMC,102557.00,A,3708.92449,N,08034.71673,W,0.014,,080521,,,D*6D
$GPVTG,,T,,M,0.014,N,0.025,K,D*24
$GPGGA,102557.00,3708.92449,N,08034.71673,W,2,10,0.92,590.4,M,-33.3,M,,0000*60
$GPGSA,A,3,46,04,16,22,31,32,03,26,29,51,,,1.80,0.92,1.54*0A
$GPGSV,3,1,12,03,44,274,40,04,31,312,42,16,52,195,47,22,40,235,46*72
$GPGSV,3,2,12,26,79,157,45,27,01,172,,29,17,060,30,31,52,047,50*78
$GPGSV,3,3,12,32,20,125,37,46,24,242,41,48,21,245,39,51,39,220,43*71
$GPGLL,3708.92449,N,08034.71673,W,102557.00,A,D*7F
$GPRMC,102558.00,A,3708.92448,N,08034.71673,W,0.037,,080521,,,D*62
$GPVTG,,T,,M,0.037,N,0.068,K,D*2C
$GPGGA,102558.00,3708.92448,N,08034.71673,W,2,10,0.92,590.5,M,-33.3,M,,0000*6F
$GPGSA,A,3,46,04,16,22,31,32,03,26,29,51,,,1.80,0.92,1.54*0A
$GPGSV,3,1,12,03,44,274,38,04,31,312,43,16,52,195,47,22,40,235,46*7C
$GPGSV,3,2,12,26,79,157,44,27,01,172,,29,17,060,30,31,52,047,50*79
$GPGSV,3,3,12,32,20,125,37,46,24,242,41,48,21,245,39,51,39,220,42*70
$GPGLL,3708.92448,N,08034.71673,W,102558.00,A,D*71
$GPRMC,102559.00,A,3708.92446,N,08034.71669,W,0.025,,080521,,,D*65
$GPVTG,,T,,M,0.025,N,0.047,K,D*22
$GPGGA,102559.00,3708.92446,N,08034.71669,W,2,10,0.92,590.7,M,-33.3,M,,0000*69
$GPGSA,A,3,46,04,16,22,31,32,03,26,29,51,,,1.80,0.92,1.54*0A
$GPGSV,3,1,12,03,44,274,40,04,31,312,42,16,52,195,47,22,40,235,45*71
$GPGSV,3,2,12,26,79,157,45,27,01,172,,29,17,060,30,31,52,047,50*78
$GPGSV,3,3,12,32,20,125,37,46,24,242,41,48,21,245,39,51,39,220,42*70
$GPGLL,3708.92446,N,08034.71669,W,102559.00,A,D*75
$GPRMC,102600.00,A,3708.92444,N,08034.71665,W,0.018,,080521,,,D*6A
$GPVTG,,T,,M,0.018,N,0.033,K,D*2F
$GPGGA,102600.00,3708.92444,N,08034.71665,W,2,10,0.92,590.7,M,-33.3,M,,0000*68
$GPGSA,A,3,46,04,16,22,31,32,03,26,29,51,,,1.80,0.92,1.54*0A
$GPGSV,3,1,12,03,44,274,39,04,31,312,42,16,52,195,47,22,40,235,45*7F
$GPGSV,3,2,12,26,79,157,45,27,01,172,,29,17,060,31,31,52,047,50*79
$GPGSV,3,3,12,32,20,125,37,46,24,242,41,48,21,245,40,51,39,220,42*7E
$GPGLL,3708.92444,N,08034.71665,W,102600.00,A,D*74
$GPRMC,102601.00,A,3708.92443,N,08034.71663,W,0.004,,080521,,,D*67
$GPVTG,,T,,M,0.004,N,0.008,K,D*2A
$GPGGA,102601.00,3708.92443,N,08034.71663,W,2,10,0.92,590.8,M,-33.3,M,,0000*67
$GPGSA,A,3,46,04,16,22,31,32,03,26,29,51,,,1.80,0.92,1.54*0A
$GPGSV,3,1,12,03,44,274,40,04,31,312,42,16,52,195,47,22,40,235,45*71
$GPGSV,3,2,12,26,79,157,45,27,01,172,,29,17,060,30,31,52,047,50*78
$GPGSV,3,3,12,32,19,125,37,46,24,242,41,48,21,245,39,51,39,220,41*79
$GPGLL,3708.92443,N,08034.71663,W,102601.00,A,D*74
$GPRMC,102602.00,A,3708.92440,N,08034.71656,W,0.010,,080521,,,D*64
$GPVTG,,T,,M,0.010,N,0.018,K,D*2E
$GPGGA,102602.00,3708.92440,N,08034.71656,W,2,10,0.92,590.7,M,-33.3,M,,0000*6E
$GPGSA,A,3,46,04,16,22,31,32,03,26,29,51,,,1.80,0.92,1.54*0A
$GPGSV,3,1,12,03,44,274,40,04,31,312,42,16,52,195,47,22,40,235,44*70
$GPGSV,3,2,12,26,79,157,45,27,01,172,,29,17,060,30,31,52,047,50*78
$GPGSV,3,3,12,32,19,125,37,46,24,242,41,48,21,245,39,51,39,220,41*79
$GPGLL,3708.92440,N,08034.71656,W,102602.00,A,D*72
$GPRMC,102603.00,A,3708.92438,N,08034.71653,W,0.024,,080521,,,D*68
$GPVTG,,T,,M,0.024,N,0.045,K,D*21
$GPGGA,102603.00,3708.92438,N,08034.71653,W,2,10,0.92,590.7,M,-33.3,M,,0000*65
$GPGSA,A,3,46,04,16,22,31,32,03,26,29,51,,,1.80,0.92,1.54*0A
$GPGSV,3,1,12,03,44,274,39,04,31,312,42,16,52,195,47,22,40,235,45*7F
$GPGSV,3,2,12,26,79,157,45,27,01,172,,29,17,060,31,31,52,047,50*79
$GPGSV,3,3,12,32,19,125,36,46,24,242,41,48,21,245,39,51,39,220,42*7B
$GPGLL,3708.92438,N,08034.71653,W,102603.00,A,D*79
$GPRMC,102604.00,A,3708.92436,N,08034.71650,W,0.018,,080521,,,D*6D
$GPVTG,,T,,M,0.018,N,0.032,K,D*2E
$GPGGA,102604.00,3708.92436,N,08034.71650,W,2,10,0.92,590.6,M,-33.3,M,,0000*6E
$GPGSA,A,3,46,04,16,22,31,32,03,26,29,51,,,1.80,0.92,1.54*0A
$GPGSV,3,1,12,03,44,274,39,04,31,312,42,16,52,195,47,22,40,235,45*7F
$GPGSV,3,2,12,26,79,157,45,27,01,172,,29,17,060,32,31,52,047,50*7A
$GPGSV,3,3,12,32,19,125,36,46,24,242,41,48,21,245,39,51,39,220,42*7B
$GPGLL,3708.92436,N,08034.71650,W,102604.00,A,D*73
$GPRMC,102605.00,A,3708.92433,N,08034.71648,W,0.012,,080521,,,D*6A
$GPVTG,,T,,M,0.012,N,0.023,K,D*24
$GPGGA,102605.00,3708.92433,N,08034.71648,W,2,10,0.92,590.5,M,-33.3,M,,0000*60
$GPGSA,A,3,46,04,16,22,31,32,03,26,29,51,,,1.80,0.92,1.54*0A
$GPGSV,3,1,12,03,44,274,39,04,31,312,42,16,52,195,47,22,40,235,45*7F
$GPGSV,3,2,12,26,79,157,45,27,01,172,,29,17,060,32,31,52,047,50*7A
$GPGSV,3,3,12,32,19,125,36,46,24,242,41,48,21,245,39,51,39,220,42*7B
$GPGLL,3708.92433,N,08034.71648,W,102605.00,A,D*7E
$GPRMC,102606.00,A,3708.92431,N,08034.71646,W,0.018,,080521,,,D*6F
$GPVTG,,T,,M,0.018,N,0.033,K,D*2F
$GPGGA,102606.00,3708.92431,N,08034.71646,W,2,10,0.92,590.4,M,-33.3,M,,0000*6E
$GPGSA,A,3,46,04,16,22,31,32,03,26,29,51,,,1.80,0.92,1.54*0A
$GPGSV,3,1,12,03,44,274,39,04,31,312,42,16,52,195,47,22,40,235,45*7F
$GPGSV,3,2,12,26,79,157,45,27,01,172,,29,17,060,32,31,52,047,50*7A
$GPGSV,3,3,12,32,19,125,36,46,24,242,41,48,21,245,39,51,39,220,42*7B
$GPGLL,3708.92431,N,08034.71646,W,102606.00,A,D*71
$GPRMC,102607.00,A,3708.92427,N,08034.71645,W,0.004,,080521,,,D*67
$GPVTG,,T,,M,0.004,N,0.008,K,D*2A
$GPGGA,102607.00,3708.92427,N,08034.71645,W,2,10,0.92,590.4,M,-33.3,M,,0000*6B
$GPGSA,A,3,46,04,16,22,31,32,03,26,29,51,,,1.80,0.92,1.54*0A
$GPGSV,3,1,12,03,44,274,38,04,31,312,42,16,52,195,47,22,40,235,45*7E
$GPGSV,3,2,12,26,79,157,45,27,01,172,,29,17,060,33,31,52,047,50*7B
$GPGSV,3,3,12,32,19,125,36,46,24,242,41,48,21,245,39,51,39,220,42*7B
$GPGLL,3708.92427,N,08034.71645,W,102607.00,A,D*74
$GPRMC,102608.00,A,3708.92424,N,08034.71644,W,0.025,,080521,,,D*69
$GPVTG,,T,,M,0.025,N,0.046,K,D*23
$GPGGA,102608.00,3708.92424,N,08034.71644,W,2,10,0.92,590.3,M,-33.3,M,,0000*61
$GPGSA,A,3,46,04,16,22,31,32,03,26,29,51,,,1.80,0.92,1.54*0A
$GPGSV,3,1,12,03,44,274,38,04,31,312,42,16,52,195,47,22,40,235,44*7F
$GPGSV,3,2,12,26,79,157,45,27,01,172,,29,17,060,33,31,52,047,50*7B
$GPGSV,3,3,12,32,19,125,36,46,24,242,41,48,21,245,39,51,39,220,42*7B
$GPGLL,3708.92424,N,08034.71644,W,102608.00,A,D*79
$GPRMC,102609.00,A,3708.92422,N,08034.71643,W,0.008,,080521,,,D*66
$GPVTG,,T,,M,0.008,N,0.014,K,D*2B
$GPGGA,102609.00,3708.92422,N,08034.71643,W,2,10,0.92,590.3,M,-33.3,M,,0000*61
$GPGSA,A,3,46,04,16,22,31,32,03,26,29,51,,,1.80,0.92,1.54*0A
$GPGSV,3,1,12,03,44,274,38,04,31,312,42,16,52,195,47,22,40,235,44*7F
$GPGSV,3,2,12,26,79,157,45,27,01,172,,29,17,060,33,31,52,047,50*7B
$GPGSV,3,3,12,32,19,125,36,46,24,242,41,48,21,245,39,51,39,220,42*7B
$GPGLL,3708.92422,N,08034.71643,W,102609.00,A,D*79
$GPRMC,102610.00,A,3708.92419,N,08034.71643,W,0.019,,080521,,,D*66
$GPVTG,,T,,M,0.019,N,0.036,K,D*2B
$GPGGA,102610.00,3708.92419,N,08034.71643,W,2,10,0.92,590.3,M,-33.3,M,,0000*61
$GPGSA,A,3,46,04,16,22,31,32,03,26,29,51,,,1.80,0.92,1.54*0A
$GPGSV,3,1,12,03,44,274,38,04,31,312,42,16,52,195,47,22,40,235,44*7F
$GPGSV,3,2,12,26,79,157,45,27,01,172,,29,17,060,33,31,52,047,50*7B
$GPGSV,3,3,12,32,19,125,36,46,24,242,41,48,21,245,39,51,39,220,41*78
$GPGLL,3708.92419,N,08034.71643,W,102610.00,A,D*79
$GPRMC,102611.00,A,3708.92417,N,08034.71643,W,0.022,,080521,,,D*61
$GPVTG,,T,,M,0.022,N,0.040,K,D*22
$GPGGA,102611.00,3708.92417,N,08034.71643,W,2,10,0.92,590.3,M,-33.3,M,,0000*6E
$GPGSA,A,3,46,04,16,22,31,32,03,26,29,51,,,1.80,0.92,1.54*0A
$GPGSV,3,1,12,03,44,274,38,04,31,312,43,16,52,195,47,22,40,235,45*7F
$GPGSV,3,2,12,26,79,157,46,27,01,172,,29,17,060,32,31,52,047,49*71
$GPGSV,3,3,12,32,19,125,32,46,24,242,41,48,21,245,39,51,39,220,38*72
$GPGLL,3708.92417,N,08034.71643,W,102611.00,A,D*76
$GPRMC,102612.00,A,3708.92416,N,08034.71643,W,0.046,,080521,,,D*61
$GPVTG,,T,,M,0.046,N,0.084,K,D*28
$GPGGA,102612.00,3708.92416,N,08034.71643,W,2,10,0.92,590.3,M,-33.3,M,,0000*6C
$GPGSA,A,3,46,04,16,22,31,32,03,26,29,51,,,1.80,0.92,1.54*0A
$GPGSV,3,1,12,03,44,274,39,04,31,312,43,16,52,195,47,22,40,235,45*7E
$GPGSV,3,2,12,26,79,157,46,27,01,172,,29,17,060,31,31,52,047,49*72
$GPGSV,3,3,12,32,19,125,31,46,24,242,41,48,21,245,39,51,39,220,38*71
$GPGLL,3708.92416,N,08034.71643,W,102612.00,A,D*74
$GPRMC,102613.00,A,3708.92417,N,08034.71642,W,0.012,,080521,,,D*61
$GPVTG,,T,,M,0.012,N,0.023,K,D*24
$GPGGA,102613.00,3708.92417,N,08034.71642,W,2,10,0.92,590.3,M,-33.3,M,,0000*6D
$GPGSA,A,3,46,04,16,22,31,32,03,26,29,51,,,1.80,0.92,1.54*0A
$GPGSV,3,1,12,03,44,274,40,04,31,312,43,16,52,195,47,22,40,235,45*70
$GPGSV,3,2,12,26,79,157,46,27,01,172,,29,17,060,32,31,52,047,49*71
$GPGSV,3,3,12,32,19,125,31,46,24,242,41,48,21,245,39,51,39,220,38*71
$GPGLL,3708.92417,N,08034.71642,W,102613.00,A,D*75
$GPRMC,102614.00,A,3708.92416,N,08034.71641,W,0.032,,080521,,,D*66
$GPVTG,,T,,M,0.032,N,0.060,K,D*21
$GPGGA,102614.00,3708.92416,N,08034.71641,W,2,10,0.92,590.2,M,-33.3,M,,0000*69
$GPGSA,A,3,46,04,16,22,31,32,03,26,29,51,,,1.80,0.92,1.54*0A
$GPGSV,3,1,12,03,44,274,40,04,31,312,43,16,52,195,47,22,40,235,45*70
$GPGSV,3,2,12,26,79,157,46,27,01,172,,29,17,060,31,31,52,047,49*72
$GPGSV,3,3,12,32,19,125,32,46,24,242,41,48,21,245,38,51,39,220,38*73
$GPGLL,3708.92416,N,08034.71641,W,102614.00,A,D*70
$GPRMC,102615.00,A,3708.92414,N,08034.71638,W,0.019,,080521,,,D*62
$GPVTG,,T,,M,0.019,N,0.036,K,D*2B
$GPGGA,102615.00,3708.92414,N,08034.71638,W,2,10,0.92,590.2,M,-33.3,M,,0000*64
$GPGSA,A,3,46,04,16,22,31,32,03,26,29,51,,,1.80,0.92,1.54*0A
$GPGSV,3,1,12,03,44,274,40,04,31,312,43,16,52,195,47,22,40,235,45*70
$GPGSV,3,2,12,26,79,157,46,27,01,172,,29,17,060,31,31,52,047,49*72
$GPGSV,3,3,12,32,19,125,31,46,24,242,41,48,21,245,38,51,39,220,38*70
$GPGLL,3708.92414,N,08034.71638,W,102615.00,A,D*7D
$GPRMC,102616.00,A,3708.92413,N,08034.71635,W,0.039,,080521,,,D*69
$GPVTG,,T,,M,0.039,N,0.073,K,D*28
$GPGGA,102616.00,3708.92413,N,08034.71635,W,2,10,0.92,590.2,M,-33.3,M,,0000*6D
$GPGSA,A,3,46,04,16,22,31,32,03,26,29,51,,,1.80,0.92,1.54*0A
$GPGSV,3,1,12,03,44,274,40,04,31,312,43,16,52,195,47,22,40,235,45*70
$GPGSV,3,2,12,26,79,157,46,27,01,172,,29,17,060,31,31,52,047,49*72
$GPGSV,3,3,12,32,19,125,31,46,24,242,41,48,21,245,38,51,39,220,38*70
$GPGLL,3708.92413,N,08034.71635,W,102616.00,A,D*74
$GPRMC,102617.00,A,3708.92411,N,08034.71630,W,0.027,,080521,,,D*60
$GPVTG,,T,,M,0.027,N,0.050,K,D*26
$GPGGA,102617.00,3708.92411,N,08034.71630,W,2,10,0.92,590.1,M,-33.3,M,,0000*68
$GPGSA,A,3,46,04,16,22,31,32,03,26,29,51,,,1.80,0.92,1.54*0A
$GPGSV,3,1,12,03,44,273,41,04,31,312,43,16,52,195,47,22,40,235,45*76
$GPGSV,3,2,12,26,79,157,46,27,01,172,,29,17,060,31,31,52,047,50*7A
$GPGSV,3,3,12,32,19,125,30,46,24,242,41,48,21,245,38,51,39,220,38*71
$GPGLL,3708.92411,N,08034.71630,W,102617.00,A,D*72
$GPRMC,102618.00,A,3708.92407,N,08034.71624,W,0.022,,080521,,,D*68
$GPVTG,,T,,M,0.022,N,0.041,K,D*23
$GPGGA,102618.00,3708.92407,N,08034.71624,W,2,10,0.92,590.1,M,-33.3,M,,0000*65
$GPGSA,A,3,46,04,16,22,31,32,03,26,29,51,,,1.80,0.92,1.54*0A
$GPGSV,3,1,12,03,44,273,40,04,32,312,42,16,52,195,47,22,40,235,45*75
$GPGSV,3,2,12,26,79,157,45,27,01,172,,29,17,060,32,31,52,047,50*7A
$GPGSV,3,3,12,32,19,125,34,46,24,242,41,48,21,245,39,51,39,220,40*7B
$GPGLL,3708.92407,N,08034.71624,W,102618.00,A,D*7F
$GPRMC,102619.00,A,3708.92401,N,08034.71617,W,0.005,,080521,,,D*6A
$GPVTG,,T,,M,0.005,N,0.010,K,D*22
$GPGGA,102619.00,3708.92401,N,08034.71617,W,2,10,0.92,590.2,M,-33.3,M,,0000*61
$GPGSA,A,3,46,04,16,22,31,32,03,26,29,51,,,1.80,0.92,1.54*0A
$GPGSV,3,1,12,03,44,273,40,04,32,312,43,16,52,195,47,22,40,235,45*74
$GPGSV,3,2,12,26,79,157,44,27,01,172,,29,17,060,33,31,52,047,50*7A
$GPGSV,3,3,12,32,19,125,34,46,24,242,40,48,21,245,40,51,39,220,41*75
$GPGLL,3708.92401,N,08034.71617,W,102619.00,A,D*78
$GPRMC,102620.00,A,3708.92396,N,08034.71609,W,0.056,,080521,,,D*60
$GPVTG,,T,,M,0.056,N,0.104,K,D*20
$GPGGA,102620.00,3708.92396,N,08034.71609,W,2,10,0.92,590.4,M,-33.3,M,,0000*6B
$GPGSA,A,3,46,04,16,22,31,32,03,26,29,51,,,1.80,0.92,1.54*0A
$GPGSV,3,1,12,03,44,273,40,04,32,312,43,16,52,195,47,22,40,235,45*74
$GPGSV,3,2,12,26,79,157,44,27,01,172,,29,17,060,33,31,52,047,50*7A
$GPGSV,3,3,12,32,19,125,34,46,24,242,40,48,21,245,40,51,39,220,41*75
$GPGLL,3708.92396,N,08034.71609,W,102620.00,A,D*74
$GPRMC,102621.00,A,3708.92391,N,08034.71606,W,0.125,,080521,,,D*6C
$GPVTG,,T,,M,0.125,N,0.232,K,D*23
$GPGGA,102621.00,3708.92391,N,08034.71606,W,2,10,0.92,590.5,M,-33.3,M,,0000*63
$GPGSA,A,3,46,04,16,22,31,32,03,26,29,51,,,1.80,0.92,1.54*0A
$GPGSV,3,1,12,03,44,273,39,04,32,312,43,16,52,195,46,22,40,235,46*78
$GPGSV,3,2,12,26,79,157,44,27,01,172,,29,17,060,33,31,52,047,50*7A
$GPGSV,3,3,12,32,19,125,35,46,24,242,41,48,21,245,40,51,39,220,41*75
$GPGLL,3708.92391,N,08034.71606,W,102621.00,A,D*7D
$GPRMC,102622.00,A,3708.92386,N,08034.71599,W,0.006,,080521,,,D*6C
$GPVTG,,T,,M,0.006,N,0.011,K,D*20
$GPGGA,102622.00,3708.92386,N,08034.71599,W,2,10,0.92,590.6,M,-33.3,M,,0000*60
$GPGSA,A,3,46,04,16,22,31,32,03,26,29,51,,,1.80,0.92,1.54*0A
$GPGSV,3,1,12,03,44,273,40,04,32,312,43,16,52,195,47,22,40,235,45*74
$GPGSV,3,2,12,26,79,157,44,27,01,172,,29,17,060,34,31,52,047,50*7D
$GPGSV,3,3,12,32,19,125,33,46,24,242,41,48,21,245,40,51,39,220,42*70
$GPGLL,3708.92386,N,08034.71599,W,102622.00,A,D*7D
$GPRMC,102623.00,A,3708.92382,N,08034.71592,W,0.009,,080521,,,D*6D
$GPVTG,,T,,M,0.009,N,0.016,K,D*28
$GPGGA,102623.00,3708.92382,N,08034.71592,W,2,10,0.92,590.7,M,-33.3,M,,0000*6F
$GPGSA,A,3,46,04,16,22,31,32,03,26,29,51,,,1.80,0.92,1.54*0A
$GPGSV,3,1,12,03,44,273,40,04,32,312,42,16,52,195,47,22,40,235,45*75
$GPGSV,3,2,12,26,79,157,44,27,01,172,,29,17,060,33,31,52,047,50*7A
$GPGSV,3,3,12,32,19,125,34,46,24,242,41,48,21,245,40,51,39,220,42*77
$GPGLL,3708.92382,N,08034.71592,W,102623.00,A,D*73
$GPRMC,102624.00,A,3708.92378,N,08034.71582,W,0.020,,080521,,,D*65
$GPVTG,,T,,M,0.020,N,0.037,K,D*20
$GPGGA,102624.00,3708.92378,N,08034.71582,W,2,10,0.92,590.7,M,-33.3,M,,0000*6C
$GPGSA,A,3,46,04,16,22,31,32,03,26,29,51,,,1.80,0.92,1.54*0A
$GPGSV,4,1,13,03,44,273,40,04,32,312,42,15,,,30,16,52,195,47*45
$GPGSV,4,2,13,22,40,235,45,26,79,157,44,27,01,172,,29,17,060,34*79
$GPGSV,4,3,13,31,52,047,50,32,19,125,34,46,24,242,41,48,21,245,40*7A
$GPGSV,4,4,13,51,39,220,42*43
$GPGLL,3708.92378,N,08034.71582,W,102624.00,A,D*70
$GPRMC,102625.00,A,3708.92374,N,08034.71574,W,0.023,,080521,,,D*62
$GPVTG,,T,,M,0.023,N,0.042,K,D*21
$GPGGA,102625.00,3708.92374,N,08034.71574,W,2,10,0.92,590.7,M,-33.3,M,,0000*68
$GPGSA,A,3,46,04,16,22,31,32,03,26,29,51,,,1.80,0.92,1.54*0A
$GPGSV,3,1,12,03,44,273,40,04,32,312,42,16,52,195,47,22,40,235,45*75
$GPGSV,3,2,12,26,79,157,44,27,01,172,,29,17,060,34,31,52,047,50*7D
$GPGSV,3,3,12,32,19,125,34,46,24,242,41,48,21,245,40,51,39,220,42*77
$GPGLL,3708.92374,N,08034.71574,W,102625.00,A,D*74
$GPRMC,102626.00,A,3708.92369,N,08034.71567,W,0.006,,080521,,,D*68
$GPVTG,,T,,M,0.006,N,0.012,K,D*23
$GPGGA,102626.00,3708.92369,N,08034.71567,W,2,10,0.92,590.6,M,-33.3,M,,0000*64
$GPGSA,A,3,46,04,16,22,31,32,03,26,29,51,,,1.80,0.92,1.54*0A
$GPGSV,3,1,12,03,44,273,40,04,32,312,42,16,52,195,47,22,40,235,45*75
$GPGSV,3,2,12,26,80,156,45,27,01,172,,29,17,060,34,31,52,047,50*7B
$GPGSV,3,3,12,32,19,125,34,46,24,242,41,48,21,245,40,51,39,220,41*74
$GPGLL,3708.92369,N,08034.71567,W,102626.00,A,D*79
$GPRMC,102627.00,A,3708.92365,N,08034.71560,W,0.008,,080521,,,D*6C
$GPVTG,,T,,M,0.008,N,0.015,K,D*2A
$GPGGA,102627.00,3708.92365,N,08034.71560,W,2,10,0.92,590.5,M,-33.3,M,,0000*6D
$GPGSA,A,3,46,04,16,22,31,32,03,26,29,51,,,1.79,0.92,1.54*0C
$GPGSV,3,1,12,03,44,273,40,04,32,312,42,16,52,195,47,22,40,235,45*75
$GPGSV,3,2,12,26,80,156,45,27,01,172,,29,17,060,34,31,52,047,50*7B
$GPGSV,3,3,12,32,19,125,33,46,24,242,41,48,21,245,40,51,39,220,41*73
$GPGLL,3708.92365,N,08034.71560,W,102627.00,A,D*73
$GPRMC,102628.00,A,3708.92363,N,08034.71556,W,0.029,,080521,,,D*63
$GPVTG,,T,,M,0.029,N,0.053,K,D*2B
$GPGGA,102628.00,3708.92363,N,08034.71556,W,2,10,0.92,590.4,M,-33.3,M,,0000*60
$GPGSA,A,3,46,04,16,22,31,32,03,26,29,51,,,1.79,0.92,1.54*0C
$GPGSV,3,1,12,03,44,273,40,04,32,312,42,16,52,195,47,22,40,235,44*74
$GPGSV,3,2,12,26,80,156,45,27,01,172,,29,17,060,33,31,52,047,50*7C
$GPGSV,3,3,12,32,19,125,33,46,24,242,41,48,21,245,40,51,39,220,41*73
$GPGLL,3708.92363,N,08034.71556,W,102628.00,A,D*7F
$GPRMC,102629.00,A,3708.92362,N,08034.71554,W,0.017,,080521,,,D*6C
$GPVTG,,T,,M,0.017,N,0.032,K,D*21
$GPGGA,102629.00,3708.92362,N,08034.71554,W,2,10,0.92,590.3,M,-33.3,M,,0000*65
$GPGSA,A,3,46,04,16,22,31,32,03,26,29,51,,,1.79,0.92,1.54*0C
$GPGSV,3,1,12,03,44,273,39,04,32,312,42,16,52,195,47,22,40,235,44*7A
$GPGSV,3,2,12,26,80,156,45,27,01,172,,29,17,060,34,31,52,047,50*7B
$GPGSV,3,3,12,32,19,125,33,46,24,242,41,48,21,245,40,51,39,220,41*73
$GPGLL,3708.92362,N,08034.71554,W,102629.00,A,D*7D
$GPRMC,102630.00,A,3708.92362,N,08034.71552,W,0.009,,080521,,,D*6D
$GPVTG,,T,,M,0.009,N,0.016,K,D*28
$GPGGA,102630.00,3708.92362,N,08034.71552,W,2,10,0.92,590.2,M,-33.3,M,,0000*6A
$GPGSA,A,3,46,04,16,22,31,32,03,26,29,51,,,1.79,0.92,1.54*0C
$GPGSV,3,1,12,03,44,273,40,04,32,312,42,16,52,195,47,22,40,235,43*73
$GPGSV,3,2,12,26,80,156,45,27,01,172,,29,17,060,33,31,52,047,51*7D
$GPGSV,3,3,12,32,19,125,29,46,24,242,41,48,21,245,40,51,39,220,41*78
$GPGLL,3708.92362,N,08034.71552,W,102630.00,A,D*73
$GPRMC,102631.00,A,3708.92362,N,08034.71550,W,0.008,,080521,,,D*6F
$GPVTG,,T,,M,0.008,N,0.015,K,D*2A
$GPGGA,102631.00,3708.92362,N,08034.71550,W,2,10,0.92,590.1,M,-33.3,M,,0000*6A
$GPGSA,A,3,46,04,16,22,31,32,03,26,29,51,,,1.79,0.92,1.54*0C
$GPGSV,3,1,12,03,44,273,40,04,32,312,42,16,52,195,47,22,40,235,44*74
$GPGSV,3,2,12,26,80,156,46,27,01,172,,29,17,060,32,31,51,048,51*73
$GPGSV,3,3,12,32,19,125,30,46,24,242,40,48,21,245,40,51,39,220,42*72
$GPGLL,3708.92362,N,08034.71550,W,102631.00,A,D*70
$GPRMC,102632.00,A,3708.92364,N,08034.71550,W,0.020,,080521,,,D*60
$GPVTG,,T,,M,0.020,N,0.037,K,D*20
$GPGGA,102632.00,3708.92364,N,08034.71550,W,2,10,0.92,590.0,M,-33.3,M,,0000*6E
$GPGSA,A,3,46,04,16,22,31,32,03,26,29,51,,,1.79,0.92,1.54*0C
$GPGSV,3,1,12,03,44,273,41,04,32,312,42,16,52,195,47,22,40,235,44*75
$GPGSV,3,2,12,26,80,156,45,27,01,172,,29,17,060,32,31,51,048,51*70
$GPGSV,3,3,12,32,19,125,31,46,24,242,41,48,21,245,41,51,39,220,42*73
$GPGLL,3708.92364,N,08034.71550,W,102632.00,A,D*75
$GPRMC,102633.00,A,3708.92365,N,08034.71550,W,0.016,,080521,,,D*65
$GPVTG,,T,,M,0.016,N,0.029,K,D*2A
$GPGGA,102633.00,3708.92365,N,08034.71550,W,2,10,0.92,589.9,M,-33.3,M,,0000*6F
$GPGSA,A,3,46,04,16,22,31,32,03,26,29,51,,,1.79,0.92,1.54*0C
$GPGSV,3,1,12,03,44,273,41,04,32,312,42,16,52,195,47,22,40,235,44*75
$GPGSV,3,2,12,26,80,156,45,27,01,172,,29,17,060,32,31,51,048,51*70
$GPGSV,3,3,12,32,19,125,31,46,24,242,42,48,21,245,41,51,39,220,42*70
$GPGLL,3708.92365,N,08034.71550,W,102633.00,A,D*75
$GPRMC,102634.00,A,3708.92368,N,08034.71553,W,0.041,,080521,,,D*6E
$GPVTG,,T,,M,0.041,N,0.076,K,D*22
$GPGGA,102634.00,3708.92368,N,08034.71553,W,2,10,0.92,589.8,M,-33.3,M,,0000*67
$GPGSA,A,3,46,04,16,22,31,32,03,26,29,51,,,1.79,0.92,1.54*0C
$GPGSV,3,1,12,03,44,273,41,04,32,312,42,16,52,195,47,22,40,235,43*72
$GPGSV,3,2,12,26,80,156,45,27,01,172,,29,17,060,33,31,51,048,51*71
$GPGSV,3,3,12,32,19,125,35,46,24,242,42,48,21,245,41,51,39,220,41*77
$GPGLL,3708.92368,N,08034.71553,W,102634.00,A,D*7C
$GPRMC,102635.00,A,3708.92369,N,08034.71554,W,0.016,,080521,,,D*6B
$GPVTG,,T,,M,0.016,N,0.029,K,D*2A
$GPGGA,102635.00,3708.92369,N,08034.71554,W,2,10,0.92,589.7,M,-33.3,M,,0000*6F
$GPGSA,A,3,46,04,16,22,31,32,03,26,29,51,,,1.79,0.92,1.54*0C
$GPGSV,3,1,12,03,44,273,40,04,32,312,43,16,52,195,47,22,40,235,43*72
$GPGSV,3,2,12,26,80,156,45,27,01,172,,29,17,060,33,31,51,048,51*71
$GPGSV,3,3,12,32,19,125,35,46,24,242,42,48,21,245,42,51,39,220,41*74
$GPGLL,3708.92369,N,08034.71554,W,102635.00,A,D*7B
$GPRMC,102636.00,A,3708.92370,N,08034.71554,W,0.013,,080521,,,D*65
$GPVTG,,T,,M,0.013,N,0.024,K,D*22
$GPGGA,102636.00,3708.92370,N,08034.71554,W,2,10,0.92,589.7,M,-33.3,M,,0000*64
$GPGSA,A,3,46,04,16,22,31,32,03,26,29,51,,,1.79,0.92,1.54*0C
$GPGSV,3,1,12,03,44,273,40,04,32,312,43,16,52,195,47,22,40,235,43*72
$GPGSV,3,2,12,26,80,156,45,27,01,172,,29,17,060,33,31,51,048,51*71
$GPGSV,3,3,12,32,19,125,35,46,24,242,41,48,21,245,42,51,39,220,41*77
$GPGLL,3708.92370,N,08034.71554,W,102636.00,A,D*70
$GPRMC,102637.00,A,3708.92371,N,08034.71555,W,0.014,,080521,,,D*63
$GPVTG,,T,,M,0.014,N,0.026,K,D*27
$GPGGA,102637.00,3708.92371,N,08034.71555,W,2,10,0.92,589.7,M,-33.3,M,,0000*65
$GPGSA,A,3,46,04,16,22,31,32,03,26,29,51,,,1.79,0.92,1.54*0C
$GPGSV,3,1,12,03,44,273,40,04,32,312,42,16,52,195,47,22,40,235,43*73
$GPGSV,3,2,12,26,80,156,46,27,01,172,,29,17,060,34,31,51,048,51*75
$GPGSV,3,3,12,32,19,125,34,46,24,242,41,48,21,245,41,51,39,220,41*75
$GPGLL,3708.92371,N,08034.71555,W,102637.00,A,D*71
$GPRMC,102638.00,A,3708.92373,N,08034.71557,W,0.025,,080521,,,D*6E
$GPVTG,,T,,M,0.025,N,0.047,K,D*22
$GPGGA,102638.00,3708.92373,N,08034.71557,W,2,10,0.92,589.7,M,-33.3,M,,0000*6A
$GPGSA,A,3,46,04,16,22,31,32,03,26,29,51,,,1.79,0.92,1.54*0C
$GPGSV,3,1,12,03,44,273,40,04,32,312,41,16,52,195,47,22,40,235,43*70
$GPGSV,3,2,12,26,80,156,45,27,01,172,,29,17,060,33,31,51,048,51*71
$GPGSV,3,3,12,32,19,125,34,46,24,242,42,48,21,245,41,51,39,220,41*76
$GPGLL,3708.92373,N,08034.71557,W,102638.00,A,D*7E
$GPRMC,102639.00,A,3708.92374,N,08034.71559,W,0.014,,080521,,,D*64
$GPVTG,,T,,M,0.014,N,0.027,K,D*26
$GPGGA,102639.00,3708.92374,N,08034.71559,W,2,10,0.92,589.8,M,-33.3,M,,0000*6D
$GPGSA,A,3,46,04,16,22,31,32,03,26,29,51,,,1.79,0.92,1.54*0C
$GPGSV,3,1,12,03,44,273,40,04,32,312,42,16,52,195,48,22,40,235,43*7C
$GPGSV,3,2,12,26,80,156,45,27,01,172,,29,17,060,32,31,51,048,51*70
$GPGSV,3,3,12,32,19,125,33,46,24,242,42,48,21,245,40,51,39,220,41*70
$GPGLL,3708.92374,N,08034.71559,W,102639.00,A,D*76
$GPRMC,102640.00,A,3708.92375,N,08034.71561,W,0.020,,080521,,,D*67
$GPVTG,,T,,M,0.020,N,0.037,K,D*20
$GPGGA,102640.00,3708.92375,N,08034.71561,W,2,10,0.92,589.9,M,-33.3,M,,0000*68
$GPGSA,A,3,46,04,16,22,31,32,03,26,29,51,,,1.79,0.92,1.54*0C
$GPGSV,3,1,12,03,44,273,40,04,32,312,42,16,52,195,48,22,40,235,43*7C
$GPGSV,3,2,12,26,80,156,45,27,01,172,,29,17,060,31,31,51,048,51*73
$GPGSV,3,3,12,32,19,125,33,46,24,242,42,48,21,245,40,51,39,220,41*70
$GPGLL,3708.92375,N,08034.71561,W,102640.00,A,D*72
$GPRMC,102641.00,A,3708.92378,N,08034.71563,W,0.020,,080521,,,D*69
$GPVTG,,T,,M,0.020,N,0.037,K,D*20
$GPGGA,102641.00,3708.92378,N,08034.71563,W,2,10,0.92,590.0,M,-33.3,M,,0000*67
$GPGSA,A,3,46,04,16,22,31,32,03,26,29,51,,,1.79,0.92,1.54*0C
$GPGSV,3,1,12,03,44,273,40,04,32,312,42,16,52,195,48,22,40,235,43*7C
$GPGSV,3,2,12,26,80,156,45,27,01,172,,29,17,060,32,31,51,048,51*70
$GPGSV,3,3,12,32,19,125,33,46,24,242,42,48,21,245,40,51,39,220,41*70
$GPGLL,3708.92378,N,08034.71563,W,102641.00,A,D*7C
$GPRMC,102642.00,A,3708.92380,N,08034.71565,W,0.014,,080521,,,D*6C
$GPVTG,,T,,M,0.014,N,0.027,K,D*26
$GPGGA,102642.00,3708.92380,N,08034.71565,W,2,10,0.92,590.0,M,-33.3,M,,0000*65
$GPGSA,A,3,46,04,16,22,31,32,03,26,29,51,,,1.79,0.92,1.54*0C
$GPGSV,3,1,12,03,44,273,40,04,32,312,42,16,52,195,48,22,40,235,43*7C
$GPGSV,3,2,12,26,80,156,45,27,01,172,,29,17,060,32,31,51,048,50*71
$GPGSV,3,3,12,32,19,125,34,46,24,242,42,48,21,245,40,51,39,220,41*77
$GPGLL,3708.92380,N,08034.71565,W,102642.00,A,D*7E
$GPRMC,102643.00,A,3708.92382,N,08034.71567,W,0.048,,080521,,,D*64
$GPVTG,,T,,M,0.048,N,0.088,K,D*2A
$GPGGA,102643.00,3708.92382,N,08034.71567,W,2,10,0.92,590.1,M,-33.3,M,,0000*65
$GPGSA,A,3,46,04,16,22,31,32,03,26,29,51,,,1.79,0.92,1.54*0C
$GPGSV,3,1,12,03,44,273,40,04,32,312,42,16,52,195,48,22,40,235,43*7C
$GPGSV,3,2,12,26,80,156,45,27,01,172,,29,17,060,32,31,51,048,51*70
$GPGSV,3,3,12,32,19,125,34,46,24,242,42,48,21,245,40,51,39,220,41*77
$GPGLL,3708.92382,N,08034.71567,W,102643.00,A,D*7F
$GPRMC,102644.00,A,3708.92384,N,08034.71571,W,0.078,,080521,,,D*61
$GPVTG,,T,,M,0.078,N,0.145,K,D*29
$GPGGA,102644.00,3708.92384,N,08034.71571,W,2,10,0.92,590.2,M,-33.3,M,,0000*60
$GPGSA,A,3,46,04,16,22,31,32,03,26,29,51,,,1.79,0.92,1.54*0C
$GPGSV,3,1,12,03,44,273,40,04,32,312,42,16,52,195,47,22,40,235,44*74
$GPGSV,3,2,12,26,80,156,45,27,01,172,,29,17,060,31,31,51,048,51*73
$GPGSV,3,3,12,32,19,125,34,46,24,242,41,48,21,245,40,51,39,220,40*75
$GPGLL,3708.92384,N,08034.71571,W,102644.00,A,D*79
$GPRMC,102645.00,A,3708.92384,N,08034.71573,W,0.008,,080521,,,D*65
$GPVTG,,T,,M,0.008,N,0.015,K,D*2A
$GPGGA,102645.00,3708.92384,N,08034.71573,W,2,10,0.92,590.4,M,-33.3,M,,0000*65
$GPGSA,A,3,46,04,16,22,31,32,03,26,29,51,,,1.79,0.92,1.54*0C
$GPGSV,4,1,13,03,44,273,41,04,32,312,42,09,00,310,,16,52,195,48*77
$GPGSV,4,2,13,22,40,235,43,26,80,156,45,27,01,172,,29,17,060,31*7C
$GPGSV,4,3,13,31,51,048,51,32,19,125,33,46,24,242,41,48,21,245,40*70
$GPGSV,4,4,13,51,39,220,41*40
$GPGLL,3708.92384,N,08034.71573,W,102645.00,A,D*7A
$GPRMC,102646.00,A,3708.92384,N,08034.71571,W,0.014,,080521,,,D*69
$GPVTG,,T,,M,0.014,N,0.026,K,D*27
$GPGGA,102646.00,3708.92384,N,08034.71571,W,2,10,0.92,590.4,M,-33.3,M,,0000*64
$GPGSA,A,3,46,04,16,22,31,32,03,26,29,51,,,1.79,0.92,1.54*0C
$GPGSV,4,1,13,03,44,273,41,04,32,312,42,09,00,310,,16,52,195,48*77
$GPGSV,4,2,13,22,40,235,44,26,80,156,44,27,01,172,,29,17,060,33*78
$GPGSV,4,3,13,31,51,048,51,32,19,125,33,46,24,242,42,48,21,245,40*73
$GPGSV,4,4,13,51,39,220,40*41
$GPGLL,3708.92384,N,08034.71571,W,102646.00,A,D*7B
$GPRMC,102647.00,A,3708.92384,N,08034.71570,W,0.019,,080521,,,D*64
$GPVTG,,T,,M,0.019,N,0.036,K,D*2B
$GPGGA,102647.00,3708.92384,N,08034.71570,W,2,10,0.92,590.4,M,-33.3,M,,0000*64
$GPGSA,A,3,46,04,16,22,31,32,03,26,29,51,,,1.79,0.92,1.54*0C
$GPGSV,4,1,13,03,44,273,42,04,32,312,41,09,00,310,,16,52,195,48*77
$GPGSV,4,2,13,22,40,235,44,26,80,156,46,27,01,172,,29,17,060,33*7A
$GPGSV,4,3,13,31,51,048,52,32,19,125,33,46,24,242,41,48,21,245,41*72
$GPGSV,4,4,13,51,39,220,40*41
$GPGLL,3708.92384,N,08034.71570,W,102647.00,A,D*7B
$GPRMC,102648.00,A,3708.92387,N,08034.71572,W,0.019,,080521,,,D*6A
$GPVTG,,T,,M,0.019,N,0.036,K,D*2B
$GPGGA,102648.00,3708.92387,N,08034.71572,W,2,10,0.92,590.4,M,-33.3,M,,0000*6A
$GPGSA,A,3,46,04,16,22,31,32,03,26,29,51,,,1.79,0.92,1.54*0C
$GPGSV,4,1,13,03,44,273,42,04,32,312,40,09,00,310,,16,52,195,47*79
$GPGSV,4,2,13,22,40,235,43,26,80,156,44,27,01,172,,29,17,060,32*7E
$GPGSV,4,3,13,31,51,048,51,32,19,125,31,46,24,242,40,48,21,245,41*72
$GPGSV,4,4,13,51,39,220,41*40
$GPGLL,3708.92387,N,08034.71572,W,102648.00,A,D*75
$GPRMC,102649.00,A,3708.92389,N,08034.71574,W,0.006,,080521,,,D*6D
$GPVTG,,T,,M,0.006,N,0.010,K,D*21
$GPGGA,102649.00,3708.92389,N,08034.71574,W,2,10,0.92,590.5,M,-33.3,M,,0000*62
$GPGSA,A,3,46,04,16,22,31,32,03,26,29,51,,,1.79,0.92,1.54*0C
$GPGSV,4,1,13,03,44,273,40,04,32,312,41,09,00,310,,16,52,195,47*7A
$GPGSV,4,2,13,22,40,235,44,26,80,156,45,27,01,172,,29,17,060,33*79
$GPGSV,4,3,13,31,51,048,51,32,19,125,33,46,24,242,42,48,21,245,40*73
$GPGSV,4,4,13,51,39,220,41*40
$GPGLL,3708.92389,N,08034.71574,W,102649.00,A,D*7C
$GPRMC,102650.00,A,3708.92393,N,08034.71576,W,0.009,,080521,,,D*63
$GPVTG,,T,,M,0.009,N,0.016,K,D*28
$GPGGA,102650.00,3708.92393,N,08034.71576,W,2,10,0.92,590.5,M,-33.3,M,,0000*63
$GPGSA,A,3,46,04,16,22,31,32,03,26,29,51,,,1.79,0.92,1.54*0C
$GPGSV,4,1,13,03,44,273,40,04,32,312,41,09,00,310,,16,52,195,48*75
$GPGSV,4,2,13,22,40,235,44,26,80,156,44,27,01,172,,29,17,060,32*79
$GPGSV,4,3,13,31,51,048,51,32,19,125,33,46,24,242,42,48,21,245,40*73
$GPGSV,4,4,13,51,39,220,41*40
$GPGLL,3708.92393,N,08034.71576,W,102650.00,A,D*7D
$GPRMC,102651.00,A,3708.92395,N,08034.71578,W,0.030,,080521,,,D*60
$GPVTG,,T,,M,0.030,N,0.055,K,D*25
$GPGGA,102651.00,3708.92395,N,08034.71578,W,2,10,0.92,590.5,M,-33.3,M,,0000*6A
$GPGSA,A,3,46,04,16,22,31,32,03,26,29,51,,,1.79,0.92,1.54*0C
$GPGSV,4,1,13,03,44,273,41,04,32,312,41,09,00,310,,16,52,195,48*74
$GPGSV,4,2,13,22,40,235,44,26,80,156,45,27,01,172,,29,17,060,32*78
$GPGSV,4,3,13,31,51,048,51,32,19,125,33,46,24,242,41,48,21,245,40*70
$GPGSV,4,4,13,51,39,220,41*40
$GPGLL,3708.92395,N,08034.71578,W,102651.00,A,D*74
$GPRMC,102652.00,A,3708.92396,N,08034.71579,W,0.018,,080521,,,D*6B
$GPVTG,,T,,M,0.018,N,0.033,K,D*2F
$GPGGA,102652.00,3708.92396,N,08034.71579,W,2,10,0.92,590.6,M,-33.3,M,,0000*68
$GPGSA,A,3,46,04,16,22,31,32,03,26,29,51,,,1.79,0.92,1.54*0C
$GPGSV,4,1,13,03,44,273,40,04,32,312,41,09,00,310,,16,52,195,47*7A
$GPGSV,4,2,13,22,40,235,44,26,80,156,45,27,01,172,,29,17,060,33*79
$GPGSV,4,3,13,31,51,048,51,32,19,125,34,46,24,242,42,48,21,245,40*74
$GPGSV,4,4,13,51,39,220,42*43
$GPGLL,3708.92396,N,08034.71579,W,102652.00,A,D*75
$GPRMC,102653.00,A,3708.92398,N,08034.71581,W,0.021,,080521,,,D*69
$GPVTG,,T,,M,0.021,N,0.039,K,D*2F
$GPGGA,102653.00,3708.92398,N,08034.71581,W,2,10,0.92,590.5,M,-33.3,M,,0000*63
$GPGSA,A,3,46,04,16,22,31,32,03,26,29,51,,,1.79,0.92,1.54*0C
$GPGSV,4,1,13,03,44,273,40,04,32,312,42,09,00,310,,16,52,195,47*79
$GPGSV,4,2,13,22,40,235,44,26,80,156,45,27,01,172,,29,17,060,33*79
$GPGSV,4,3,13,31,51,048,51,32,19,125,35,46,24,242,41,48,21,245,40*76
$GPGSV,4,4,13,51,39,220,42*43
$GPGLL,3708.92398,N,08034.71581,W,102653.00,A,D*7D
$GPRMC,102654.00,A,3708.92399,N,08034.71581,W,0.003,,080521,,,D*6F
$GPVTG,,T,,M,0.003,N,0.006,K,D*23
$GPGGA,102654.00,3708.92399,N,08034.71581,W,2,10,0.92,590.5,M,-33.3,M,,0000*65
$GPGSA,A,3,46,04,16,22,31,32,03,26,29,51,,,1.79,0.92,1.54*0C
$GPGSV,4,1,13,03,44,273,40,04,32,312,42,09,00,310,,16,52,195,47*79
$GPGSV,4,2,13,22,40,235,44,26,80,156,45,27,01,172,,29,17,060,34*7E
$GPGSV,4,3,13,31,51,048,51,32,19,125,35,46,24,242,41,48,21,245,40*76
$GPGSV,4,4,13,51,39,220,42*43
$GPGLL,3708.92399,N,08034.71581,W,102654.00,A,D*7B
$GPRMC,102655.00,A,3708.92399,N,08034.71581,W,0.020,,080521,,,D*6F
$GPVTG,,T,,M,0.020,N,0.036,K,D*21
$GPGGA,102655.00,3708.92399,N,08034.71581,W,2,10,0.92,590.5,M,-33.3,M,,0000*64
$GPGSA,A,3,46,04,16,22,31,32,03,26,29,51,,,1.79,0.92,1.54*0C
$GPGSV,4,1,13,03,44,273,40,04,32,312,42,09,00,310,,16,52,195,47*79
$GPGSV,4,2,13,22,40,235,44,26,80,156,45,27,01,172,,29,17,060,34*7E
$GPGSV,4,3,13,31,51,048,51,32,19,125,34,46,24,242,41,48,21,245,40*77
$GPGSV,4,4,13,51,39,220,41*40
$GPGLL,3708.92399,N,08034.71581,W,102655.00,A,D*7A
$GPRMC,102656.00,A,3708.92400,N,08034.71583,W,0.020,,080521,,,D*69
$GPVTG,,T,,M,0.020,N,0.037,K,D*20
$GPGGA,102656.00,3708.92400,N,08034.71583,W,2,10,0.92,590.5,M,-33.3,M,,0000*62
$GPGSA,A,3,46,04,16,22,31,32,03,26,29,51,,,1.79,0.92,1.54*0C
$GPGSV,4,1,13,03,44,273,40,04,32,312,41,09,00,310,,16,52,195,47*7A
$GPGSV,4,2,13,22,40,235,44,26,80,156,45,27,01,172,,29,17,060,36*7C
$GPGSV,4,3,13,31,51,048,51,32,19,125,35,46,24,242,41,48,21,245,39*78
$GPGSV,4,4,13,51,39,220,41*40
$GPGLL,3708.92400,N,08034.71583,W,102656.00,A,D*7C
$GPRMC,102657.00,A,3708.92403,N,08034.71586,W,0.013,,080521,,,D*6E
$GPVTG,,T,,M,0.013,N,0.024,K,D*22
$GPGGA,102657.00,3708.92403,N,08034.71586,W,2,10,0.92,590.6,M,-33.3,M,,0000*66
$GPGSA,A,3,46,04,16,22,31,32,03,26,29,51,,,1.79,0.92,1.54*0C
$GPGSV,4,1,13,03,44,273,39,04,32,312,41,09,00,310,,16,52,195,47*74
$GPGSV,4,2,13,22,40,235,44,26,80,156,45,27,01,172,,29,17,060,36*7C
$GPGSV,4,3,13,31,51,048,51,32,19,125,35,46,24,242,41,48,21,245,39*78
$GPGSV,4,4,13,51,39,220,41*40
$GPGLL,3708.92403,N,08034.71586,W,102657.00,A,D*7B
$GPRMC,102658.00,A,3708.92405,N,08034.71591,W,0.011,,080521,,,D*63
$GPVTG,,T,,M,0.011,N,0.021,K,D*25
$GPGGA,102658.00,3708.92405,N,08034.71591,W,2,10,0.92,590.7,M,-33.3,M,,0000*68
$GPGSA,A,3,46,04,16,22,31,32,03,26,29,51,,,1.79,0.92,1.54*0C
$GPGSV,4,1,13,03,44,273,39,04,32,312,41,09,00,310,,16,52,195,47*74
$GPGSV,4,2,13,22,40,235,44,26,80,155,45,27,01,172,,29,17,060,36*7F
$GPGSV,4,3,13,31,51,048,51,32,19,125,35,46,24,242,41,48,21,245,39*78
$GPGSV,4,4,13,51,39,220,41*40
$GPGLL,3708.92405,N,08034.71591,W,102658.00,A,D*74
$GPRMC,102659.00,A,3708.92408,N,08034.71597,W,0.028,,080521,,,D*63
$GPVTG,,T,,M,0.028,N,0.053,K,D*2A
$GPGGA,102659.00,3708.92408,N,08034.71597,W,2,10,0.92,590.8,M,-33.3,M,,0000*6D
$GPGSA,A,3,46,04,16,22,31,32,03,26,29,51,,,1.79,0.92,1.54*0C
$GPGSV,4,1,13,03,44,273,38,04,32,312,41,09,00,310,,16,52,195,47*75
$GPGSV,4,2,13,22,40,235,44,26,80,155,45,27,01,172,,29,17,060,36*7F
$GPGSV,4,3,13,31,51,048,51,32,19,125,34,46,24,242,41,48,21,245,38*78
$GPGSV,4,4,13,51,39,220,40*41
$GPGLL,3708.92408,N,08034.71597,W,102659.00,A,D*7E
$GPRMC,102700.00,A,3708.92411,N,08034.71603,W,0.010,,080521,,,D*63
$GPVTG,,T,,M,0.010,N,0.018,K,D*2E
$GPGGA,102700.00,3708.92411,N,08034.71603,W,2,10,0.92,591.0,M,-33.3,M,,0000*6F
$GPGSA,A,3,46,04,16,22,31,32,03,26,29,51,,,1.79,0.92,1.54*0C
$GPGSV,4,1,13,03,44,273,38,04,32,312,41,09,00,310,,16,52,195,47*75
$GPGSV,4,2,13,22,40,235,44,26,80,155,45,27,01,172,,29,17,060,36*7F
$GPGSV,4,3,13,31,51,048,51,32,19,125,34,46,24,242,41,48,21,245,39*79
$GPGSV,4,4,13,51,39,220,40*41
$GPGLL,3708.92411,N,08034.71603,W,102700.00,A,D*75
$GPRMC,102701.00,A,3708.92415,N,08034.71610,W,0.005,,080521,,,D*60
$GPVTG,,T,,M,0.005,N,0.010,K,D*22
$GPGGA,102701.00,3708.92415,N,08034.71610,W,2,10,0.92,591.1,M,-33.3,M,,0000*69
$GPGSA,A,3,46,04,16,22,31,32,03,26,29,51,,,1.79,0.92,1.54*0C
$GPGSV,4,1,13,03,44,273,37,04,32,312,41,09,00,310,,16,52,195,47*7A
$GPGSV,4,2,13,22,40,235,44,26,80,155,45,27,01,172,,29,17,060,36*7F
$GPGSV,4,3,13,31,51,048,51,32,19,125,33,46,24,242,41,48,21,245,39*7E
$GPGSV,4,4,13,51,39,220,40*41
$GPGLL,3708.92415,N,08034.71610,W,102701.00,A,D*72
$GPRMC,102702.00,A,3708.92419,N,08034.71615,W,0.005,,080521,,,D*6A
$GPVTG,,T,,M,0.005,N,0.009,K,D*2A
$GPGGA,102702.00,3708.92419,N,08034.71615,W,2,10,0.92,591.2,M,-33.3,M,,0000*60
$GPGSA,A,3,46,04,16,22,31,32,03,26,29,51,,,1.79,0.92,1.54*0C
$GPGSV,4,1,13,03,44,273,37,04,32,312,41,09,00,310,,16,52,195,47*7A
$GPGSV,4,2,13,22,40,235,44,26,80,155,45,27,01,172,,29,17,060,35*7C
$GPGSV,4,3,13,31,51,048,51,32,19,125,33,46,24,242,40,48,21,245,39*7F
$GPGSV,4,4,13,51,39,220,40*41
$GPGLL,3708.92419,N,08034.71615,W,102702.00,A,D*78
$GPRMC,102703.00,A,3708.92423,N,08034.71622,W,0.005,,080521,,,D*66
$GPVTG,,T,,M,0.005,N,0.009,K,D*2A
$GPGGA,102703.00,3708.92423,N,08034.71622,W,2,10,0.92,591.3,M,-33.3,M,,0000*6D
$GPGSA,A,3,46,04,16,22,31,32,03,26,29,51,,,1.79,0.92,1.54*0C
$GPGSV,4,1,14,03,44,273,37,04,32,312,40,09,00,310,,16,52,195,47*7C
$GPGSV,4,2,14,18,,,31,22,40,235,44,26,80,155,45,27,01,172,*4D
$GPGSV,4,3,14,29,17,060,35,31,51,048,51,32,19,125,35,46,24,242,41*74
$GPGSV,4,4,14,48,21,245,39,51,39,220,41*71
$GPGLL,3708.92423,N,08034.71622,W,102703.00,A,D*74
$GPRMC,102704.00,A,3708.92427,N,08034.71629,W,0.039,,080521,,,D*61
$GPVTG,,T,,M,0.039,N,0.073,K,D*28
$GPGGA,102704.00,3708.92427,N,08034.71629,W,2,10,0.92,591.5,M,-33.3,M,,0000*63
$GPGSA,A,3,46,04,16,22,31,32,03,26,29,51,,,1.79,0.92,1.54*0C
$GPGSV,4,1,14,03,44,273,37,04,32,312,40,09,00,310,,16,52,195,47*7C
$GPGSV,4,2,14,18,,,31,22,40,235,44,26,80,155,44,27,01,172,*4C
$GPGSV,4,3,14,29,17,060,35,31,51,048,51,32,19,125,35,46,24,242,41*74
$GPGSV,4,4,14,48,21,245,39,51,39,220,41*71
$GPGLL,3708.92427,N,08034.71629,W,102704.00,A,D*7C
$GPRMC,102705.00,A,3708.92429,N,08034.71634,W,0.026,,080521,,,D*6C
$GPVTG,,T,,M,0.026,N,0.048,K,D*2E
$GPGGA,102705.00,3708.92429,N,08034.71634,W,2,10,0.92,591.5,M,-33.3,M,,0000*60
$GPGSA,A,3,46,04,16,22,31,32,03,26,29,51,,,1.79,0.92,1.54*0C
$GPGSV,4,1,13,03,44,273,38,04,32,312,42,09,00,310,,16,52,195,47*76
$GPGSV,4,2,13,22,40,235,44,26,80,155,45,27,01,172,,29,17,060,35*7C
$GPGSV,4,3,13,31,51,048,51,32,19,125,33,46,24,242,41,48,21,245,41*71
$GPGSV,4,4,13,51,39,220,42*43
$GPGLL,3708.92429,N,08034.71634,W,102705.00,A,D*7F
$GPRMC,102706.00,A,3708.92432,N,08034.71640,W,0.012,,080521,,,D*61
$GPVTG,,T,,M,0.012,N,0.023,K,D*24
$GPGGA,102706.00,3708.92432,N,08034.71640,W,2,10,0.92,591.5,M,-33.3,M,,0000*6A
$GPGSA,A,3,46,04,16,22,31,32,03,26,29,51,,,1.79,0.92,1.54*0C
$GPGSV,4,1,13,03,44,273,39,04,32,312,42,09,00,310,,16,52,195,47*77
$GPGSV,4,2,13,22,40,235,44,26,80,155,45,27,01,172,,29,17,060,36*7F
$GPGSV,4,3,13,31,51,048,51,32,19,125,34,46,24,242,42,48,21,245,41*75
$GPGSV,4,4,13,51,39,220,42*43
$GPGLL,3708.92432,N,08034.71640,W,102706.00,A,D*75
$GPRMC,102707.00,A,3708.92434,N,08034.71644,W,0.047,,080521,,,D*62
$GPVTG,,T,,M,0.047,N,0.087,K,D*2A
$GPGGA,102707.00,3708.92434,N,08034.71644,W,2,10,0.92,591.6,M,-33.3,M,,0000*6A
$GPGSA,A,3,46,04,16,22,31,32,03,26,29,51,,,1.79,0.92,1.54*0C
$GPGSV,4,1,13,03,44,273,38,04,32,312,42,09,00,310,,16,52,195,46*77
$GPGSV,4,2,13,22,40,235,45,26,80,155,44,27,01,172,,29,17,060,35*7C
$GPGSV,4,3,13,31,51,048,51,32,19,125,37,46,24,242,41,48,21,245,42*76
$GPGSV,4,4,13,51,39,220,42*43
$GPGLL,3708.92434,N,08034.71644,W,102707.00,A,D*76
$GPRMC,102708.00,A,3708.92437,N,08034.71649,W,0.005,,080521,,,D*65
$GPVTG,,T,,M,0.005,N,0.010,K,D*22
$GPGGA,102708.00,3708.92437,N,08034.71649,W,2,10,0.92,591.7,M,-33.3,M,,0000*6A
$GPGSA,A,3,46,04,16,22,31,32,03,26,29,51,,,1.79,0.92,1.54*0C
$GPGSV,4,1,13,03,44,273,39,04,32,312,40,09,00,310,,16,52,195,47*75
$GPGSV,4,2,13,22,40,235,44,26,80,155,45,27,01,172,,29,17,060,35*7C
$GPGSV,4,3,13,31,51,048,51,32,19,125,36,46,24,242,42,48,21,245,41*77
$GPGSV,4,4,13,51,39,220,42*43
$GPGLL,3708.92437,N,08034.71649,W,102708.00,A,D*77
$GPRMC,102709.00,A,3708.92439,N,08034.71650,W,0.011,,080521,,,D*67
$GPVTG,,T,,M,0.011,N,0.020,K,D*24
$GPGGA,102709.00,3708.92439,N,08034.71650,W,2,10,0.92,591.7,M,-33.3,M,,0000*6D
$GPGSA,A,3,46,04,16,22,31,32,03,26,29,51,,,1.79,0.92,1.54*0C
$GPGSV,4,1,14,03,44,273,40,04,32,312,41,09,00,310,,16,52,195,47*7D
$GPGSV,4,2,14,22,40,235,45,23,,,32,26,80,155,45,27,01,172,*47
$GPGSV,4,3,14,29,17,060,35,31,51,048,51,32,19,125,35,46,24,242,42*77
$GPGSV,4,4,14,48,21,245,41,51,39,220,42*7D
$GPGLL,3708.92439,N,08034.71650,W,102709.00,A,D*70
$GPRMC,102710.00,A,3708.92441,N,08034.71653,W,0.023,,080521,,,D*62
$GPVTG,,T,,M,0.023,N,0.042,K,D*21
$GPGGA,102710.00,3708.92441,N,08034.71653,W,2,10,0.92,591.8,M,-33.3,M,,0000*66
$GPGSA,A,3,46,04,16,22,31,32,03,26,29,51,,,1.79,0.92,1.54*0C
$GPGSV,4,1,13,03,44,273,39,04,32,312,41,09,00,310,,16,52,195,47*74
$GPGSV,4,2,13,22,40,235,44,26,80,155,45,27,01,172,,29,17,060,35*7C
$GPGSV,4,3,13,31,51,048,51,32,19,125,35,46,24,242,41,48,21,245,41*77
$GPGSV,4,4,13,51,39,220,42*43
$GPGLL,3708.92441,N,08034.71653,W,102710.00,A,D*74
$GPRMC,102711.00,A,3708.92439,N,08034.71647,W,0.009,,080521,,,D*61
$GPVTG,,T,,M,0.009,N,0.016,K,D*28
$GPGGA,102711.00,3708.92439,N,08034.71647,W,2,10,0.92,591.7,M,-33.3,M,,0000*62
$GPGSA,A,3,46,04,16,22,31,32,03,26,29,51,,,1.79,0.92,1.54*0C
$GPGSV,4,1,13,03,44,273,39,04,32,312,40,09,00,310,,16,52,195,47*75
$GPGSV,4,2,13,22,40,235,44,26,80,155,45,27,01,172,,29,17,060,35*7C
$GPGSV,4,3,13,31,51,048,51,32,19,125,35,46,24,242,42,48,21,245,41*74
$GPGSV,4,4,13,51,39,220,42*43
$GPGLL,3708.92439,N,08034.71647,W,102711.00,A,D*7F
$GPRMC,102712.00,A,3708.92439,N,08034.71643,W,0.009,,080521,,,D*66
$GPVTG,,T,,M,0.009,N,0.016,K,D*28
$GPGGA,102712.00,3708.92439,N,08034.71643,W,2,10,0.92,591.5,M,-33.3,M,,0000*67
$GPGSA,A,3,46,04,16,22,31,32,03,26,29,51,,,1.79,0.92,1.54*0C
$GPGSV,4,1,13,03,44,273,39,04,32,312,40,09,00,310,,16,52,195,47*75
$GPGSV,4,2,13,22,40,235,44,26,80,155,45,27,01,172,,29,17,060,34*7D
$GPGSV,4,3,13,31,51,048,51,32,19,125,35,46,24,242,42,48,21,245,41*74
$GPGSV,4,4,13,51,39,220,42*43
$GPGLL,3708.92439,N,08034.71643,W,102712.00,A,D*78
$GPRMC,102713.00,A,3708.92441,N,08034.71641,W,0.025,,080521,,,D*64
$GPVTG,,T,,M,0.025,N,0.046,K,D*23
$GPGGA,102713.00,3708.92441,N,08034.71641,W,2,10,0.92,591.4,M,-33.3,M,,0000*6A
$GPGSA,A,3,46,04,16,22,31,32,03,26,29,51,,,1.79,0.92,1.54*0C
$GPGSV,4,1,13,03,44,273,39,04,32,312,40,09,00,310,,16,52,195,47*75
$GPGSV,4,2,13,22,40,235,44,26,80,155,45,27,01,172,,29,17,060,34*7D
$GPGSV,4,3,13,31,51,048,51,32,19,125,35,46,24,242,42,48,21,245,41*74
$GPGSV,4,4,13,51,39,220,42*43
$GPGLL,3708.92441,N,08034.71641,W,102713.00,A,D*74
$GPRMC,102714.00,A,3708.92443,N,08034.71639,W,0.013,,080521,,,D*6B
$GPVTG,,T,,M,0.013,N,0.024,K,D*22
$GPGGA,102714.00,3708.92443,N,08034.71639,W,2,10,0.92,591.2,M,-33.3,M,,0000*66
$GPGSA,A,3,46,04,16,22,31,32,03,26,29,51,,,1.79,0.92,1.54*0C
$GPGSV,4,1,14,03,44,273,39,04,32,312,40,09,00,310,,16,52,195,47*72
$GPGSV,4,2,14,18,,,31,22,40,235,44,26,80,155,45,27,01,172,*4D
$GPGSV,4,3,14,29,17,060,34,31,51,048,51,32,19,125,35,46,24,242,42*76
$GPGSV,4,4,14,48,21,245,41,51,39,220,42*7D
$GPGLL,3708.92443,N,08034.71639,W,102714.00,A,D*7E
$GPRMC,102715.00,A,3708.92447,N,08034.71639,W,0.005,,080521,,,D*69
$GPVTG,,T,,M,0.005,N,0.009,K,D*2A
$GPGGA,102715.00,3708.92447,N,08034.71639,W,2,10,0.92,591.0,M,-33.3,M,,0000*61
$GPGSA,A,3,46,04,16,22,31,32,03,26,29,51,,,1.79,0.92,1.54*0C
$GPGSV,4,1,13,03,44,273,38,04,32,312,40,09,00,310,,16,52,195,48*7B
$GPGSV,4,2,13,22,40,235,47,26,80,155,46,27,01,172,,29,17,060,34*7D
$GPGSV,4,3,13,31,51,048,51,32,19,125,31,46,24,242,41,48,21,245,41*73
$GPGSV,4,4,13,51,39,220,42*43
$GPGLL,3708.92447,N,08034.71639,W,102715.00,A,D*7B
$GPRMC,102716.00,A,3708.92451,N,08034.71642,W,0.011,,080521,,,D*64
$GPVTG,,T,,M,0.011,N,0.021,K,D*25
$GPGGA,102716.00,3708.92451,N,08034.71642,W,2,10,0.92,591.0,M,-33.3,M,,0000*69
$GPGSA,A,3,46,04,16,22,31,32,03,26,29,51,,,1.79,0.92,1.54*0C
$GPGSV,4,1,13,03,44,273,38,04,32,312,40,09,00,310,,16,52,195,47*74
$GPGSV,4,2,13,22,40,235,46,26,80,155,46,27,01,172,,29,17,060,32*7A
$GPGSV,4,3,13,31,51,048,51,32,19,125,31,46,24,242,41,48,21,245,42*70
$GPGSV,4,4,13,51,39,220,41*40
$GPGLL,3708.92451,N,08034.71642,W,102716.00,A,D*73
$GPRMC,102717.00,A,3708.92453,N,08034.71643,W,0.019,,080521,,,D*6E
$GPVTG,,T,,M,0.019,N,0.035,K,D*28
$GPGGA,102717.00,3708.92453,N,08034.71643,W,2,10,0.92,591.0,M,-33.3,M,,0000*6B
$GPGSA,A,3,46,04,16,22,31,32,03,26,29,51,,,1.79,0.92,1.54*0C
$GPGSV,4,1,13,03,44,273,38,04,32,312,39,09,00,310,,16,52,195,47*7A
$GPGSV,4,2,13,22,40,235,46,26,80,155,46,27,01,172,,29,17,060,32*7A
$GPGSV,4,3,13,31,51,048,51,32,19,125,31,46,24,242,41,48,21,245,41*73
$GPGSV,4,4,13,51,39,220,40*41
$GPGLL,3708.92453,N,08034.71643,W,102717.00,A,D*71
$GPRMC,102718.00,A,3708.92455,N,08034.71642,W,0.020,,080521,,,D*6C
$GPVTG,,T,,M,0.020,N,0.037,K,D*20
$GPGGA,102718.00,3708.92455,N,08034.71642,W,2,10,0.92,591.0,M,-33.3,M,,0000*63
$GPGSA,A,3,46,04,16,22,31,32,03,26,29,51,,,1.79,0.92,1.54*0C
$GPGSV,4,1,13,03,44,273,39,04,32,312,39,09,00,310,,16,52,195,47*7B
$GPGSV,4,2,13,22,40,235,46,26,80,155,46,27,01,172,,29,17,060,32*7A
$GPGSV,4,3,13,31,51,048,51,32,19,125,30,46,24,242,41,48,21,245,41*72
$GPGSV,4,4,13,51,39,220,41*40
$GPGLL,3708.92455,N,08034.71642,W,102718.00,A,D*79
$GPRMC,102719.00,A,3708.92457,N,08034.71639,W,0.012,,080521,,,D*62
$GPVTG,,T,,M,0.012,N,0.022,K,D*25
$GPGGA,102719.00,3708.92457,N,08034.71639,W,2,10,0.92,590.8,M,-33.3,M,,0000*65
$GPGSA,A,3,46,04,16,22,31,32,03,26,29,51,,,1.79,0.92,1.54*0C
$GPGSV,4,1,15,03,44,273,39,04,32,312,39,09,00,310,,12,,,32*41
$GPGSV,4,2,15,15,,,32,16,52,195,47,22,40,235,46,26,80,155,46*4D
$GPGSV,4,3,15,27,01,172,,29,17,060,31,31,51,048,51,32,19,125,30*71
$GPGSV,4,4,15,46,24,242,42,48,21,245,42,51,39,220,41*4A
$GPGLL,3708.92457,N,08034.71639,W,102719.00,A,D*76
$GPRMC,102720.00,A,3708.92459,N,08034.71635,W,0.014,,080521,,,D*6C
$GPVTG,,T,,M,0.014,N,0.025,K,D*24
$GPGGA,102720.00,3708.92459,N,08034.71635,W,2,10,0.92,590.8,M,-33.3,M,,0000*6D
$GPGSA,A,3,46,04,16,22,31,32,03,26,29,51,,,1.79,0.92,1.54*0C
$GPGSV,4,1,13,03,44,273,39,04,32,312,39,09,00,310,,16,52,195,47*7B
$GPGSV,4,2,13,22,40,235,46,26,80,155,46,27,01,172,,29,17,060,31*79
$GPGSV,4,3,13,31,51,048,51,32,19,125,29,46,24,242,42,48,21,245,42*7A
$GPGSV,4,4,13,51,39,220,40*41
$GPGLL,3708.92459,N,08034.71635,W,102720.00,A,D*7E
$GPRMC,102721.00,A,3708.92461,N,08034.71633,W,0.031,,080521,,,D*67
$GPVTG,,T,,M,0.031,N,0.058,K,D*29
$GPGGA,102721.00,3708.92461,N,08034.71633,W,2,10,0.92,590.7,M,-33.3,M,,0000*6E
$GPGSA,A,3,46,04,16,22,31,32,03,26,29,51,,,1.79,0.92,1.54*0C
$GPGSV,4,1,13,03,44,273,39,04,32,313,39,09,00,310,,16,52,195,47*7A
$GPGSV,4,2,13,22,40,235,46,26,80,155,46,27,01,172,,29,17,060,31*79
$GPGSV,4,3,13,31,51,048,51,32,19,125,29,46,24,242,41,48,21,245,42*79
$GPGSV,4,4,13,51,39,220,41*40
$GPGLL,3708.92461,N,08034.71633,W,102721.00,A,D*72
$GPRMC,102722.00,A,3708.92462,N,08034.71627,W,0.028,,080521,,,D*6A
$GPVTG,,T,,M,0.028,N,0.053,K,D*2A
$GPGGA,102722.00,3708.92462,N,08034.71627,W,2,10,0.92,590.5,M,-33.3,M,,0000*69
$GPGSA,A,3,46,04,16,22,31,32,03,26,29,51,,,1.79,0.92,1.54*0C
$GPGSV,4,1,13,03,44,273,39,04,32,313,39,09,00,310,,16,52,195,47*7A
$GPGSV,4,2,13,22,40,235,46,26,80,155,46,27,01,172,,29,17,060,32*7A
$GPGSV,4,3,13,31,51,048,51,32,19,125,28,46,24,242,41,48,21,245,40*7A
$GPGSV,4,4,13,51,39,220,41*40
$GPGLL,3708.92462,N,08034.71627,W,102722.00,A,D*77
$GPRMC,102723.00,A,3708.92470,N,08034.71629,W,0.033,,080521,,,D*6C
$GPVTG,,T,,M,0.033,N,0.062,K,D*22
$GPGGA,102723.00,3708.92470,N,08034.71629,W,2,10,0.92,590.5,M,-33.3,M,,0000*65
$GPGSA,A,3,46,04,16,22,31,32,03,26,29,51,,,1.79,0.92,1.54*0C
$GPGSV,4,1,13,03,44,273,39,04,32,313,40,09,00,310,,16,52,195,47*74
$GPGSV,4,2,13,22,40,235,46,26,80,155,46,27,01,172,,29,17,060,33*7B
$GPGSV,4,3,13,31,51,048,51,32,19,125,28,46,24,242,41,48,21,245,41*7B
$GPGSV,4,4,13,51,39,220,42*43
$GPGLL,3708.92470,N,08034.71629,W,102723.00,A,D*7B
$GPRMC,102724.00,A,3708.92472,N,08034.71621,W,0.033,,080521,,,D*61
$GPVTG,,T,,M,0.033,N,0.061,K,D*21
$GPGGA,102724.00,3708.92472,N,08034.71621,W,2,10,0.92,590.4,M,-33.3,M,,0000*69
$GPGSA,A,3,46,04,16,22,31,32,03,26,29,51,,,1.79,0.92,1.54*0C
$GPGSV,4,1,13,03,44,273,40,04,32,313,40,09,00,310,,16,52,195,47*7A
$GPGSV,4,2,13,22,40,235,46,26,80,155,46,27,01,172,,29,17,060,33*7B
$GPGSV,4,3,13,31,51,048,51,32,19,125,28,46,24,242,41,48,21,245,41*7B
$GPGSV,4,4,13,51,39,220,42*43
$GPGLL,3708.92472,N,08034.71621,W,102724.00,A,D*76
$GPRMC,102725.00,A,3708.92477,N,08034.71618,W,0.027,,080521,,,D*6A
$GPVTG,,T,,M,0.027,N,0.050,K,D*26
$GPGGA,102725.00,3708.92477,N,08034.71618,W,2,10,0.92,590.3,M,-33.3,M,,0000*60
$GPGSA,A,3,46,04,16,22,31,32,03,26,29,51,,,1.79,0.92,1.54*0C
$GPGSV,4,1,13,03,44,273,39,04,32,313,40,09,00,310,,16,52,195,47*74
$GPGSV,4,2,13,22,40,235,46,26,80,155,46,27,01,172,,29,17,060,33*7B
$GPGSV,4,3,13,31,51,048,51,32,19,125,28,46,24,242,41,48,21,245,41*7B
$GPGSV,4,4,13,51,39,220,42*43
$GPGLL,3708.92477,N,08034.71618,W,102725.00,A,D*78
$GPRMC,102726.00,A,3708.92480,N,08034.71613,W,0.010,,080521,,,D*6E
$GPVTG,,T,,M,0.010,N,0.018,K,D*2E
$GPGGA,102726.00,3708.92480,N,08034.71613,W,2,10,0.92,590.2,M,-33.3,M,,0000*61
$GPGSA,A,3,46,04,16,22,31,32,03,26,29,51,,,1.79,0.92,1.54*0C
$GPGSV,4,1,13,03,44,273,39,04,32,313,40,09,00,310,,16,52,195,47*74
$GPGSV,4,2,13,22,40,235,46,26,80,155,46,27,01,172,,29,17,060,33*7B
$GPGSV,4,3,13,31,51,048,51,32,19,125,27,46,24,242,41,48,21,245,41*74
$GPGSV,4,4,13,51,39,220,42*43
$GPGLL,3708.92480,N,08034.71613,W,102726.00,A,D*78
$GPRMC,102727.00,A,3708.92480,N,08034.71607,W,0.029,,080521,,,D*60
$GPVTG,,T,,M,0.029,N,0.054,K,D*2C
$GPGGA,102727.00,3708.92480,N,08034.71607,W,2,10,0.92,590.1,M,-33.3,M,,0000*66
$GPGSA,A,3,46,04,16,22,31,32,03,26,29,51,,,1.79,0.92,1.54*0C
$GPGSV,4,1,13,03,44,273,39,04,32,313,40,09,00,310,,16,52,195,47*74
$GPGSV,4,2,13,22,40,235,46,26,80,155,46,27,01,172,,29,17,060,32*7A
$GPGSV,4,3,13,31,51,048,51,32,19,125,27,46,24,242,41,48,21,245,41*74
$GPGSV,4,4,13,51,39,220,42*43
$GPGLL,3708.92480,N,08034.71607,W,102727.00,A,D*7C
$GPRMC,102728.00,A,3708.92474,N,08034.71598,W,0.030,,080521,,,D*69
$GPVTG,,T,,M,0.030,N,0.055,K,D*25
$GPGGA,102728.00,3708.92474,N,08034.71598,W,2,10,0.92,589.8,M,-33.3,M,,0000*66
$GPGSA,A,3,46,04,16,22,31,32,03,26,29,51,,,1.79,0.92,1.54*0C
$GPGSV,4,1,13,03,44,273,39,04,32,313,39,09,00,310,,16,53,195,47*7B
$GPGSV,4,2,13,22,40,235,46,26,80,155,46,27,01,172,,29,17,060,33*7B
$GPGSV,4,3,13,31,51,048,51,32,19,125,27,46,24,242,41,48,21,245,41*74
$GPGSV,4,4,13,51,39,220,42*43
$GPGLL,3708.92474,N,08034.71598,W,102728.00,A,D*7D
$GPRMC,102729.00,A,3708.92465,N,08034.71585,W,0.023,,080521,,,D*66
$GPVTG,,T,,M,0.023,N,0.042,K,D*21
$GPGGA,102729.00,3708.92465,N,08034.71585,W,2,10,0.92,589.5,M,-33.3,M,,0000*66
$GPGSA,A,3,46,04,16,22,31,32,03,26,29,51,,,1.79,0.92,1.54*0C
$GPGSV,4,1,14,03,44,273,40,04,32,313,39,09,00,310,,16,53,195,47*72
$GPGSV,4,2,14,17,,,33,22,40,235,45,26,80,155,46,27,01,172,*42
$GPGSV,4,3,14,29,17,060,33,31,51,048,51,32,19,125,27,46,24,242,41*71
$GPGSV,4,4,14,48,21,245,41,51,39,220,42*7D
$GPGLL,3708.92465,N,08034.71585,W,102729.00,A,D*70
$GPRMC,102730.00,A,3708.92468,N,08034.71581,W,0.095,,080521,,,D*6A
$GPVTG,,T,,M,0.095,N,0.177,K,D*2B
$GPGGA,102730.00,3708.92468,N,08034.71581,W,2,10,0.92,589.4,M,-33.3,M,,0000*66
$GPGSA,A,3,46,04,16,22,31,32,03,26,29,51,,,1.79,0.92,1.54*0C
$GPGSV,4,1,14,03,44,273,40,04,32,313,40,09,00,310,,16,53,195,46*7D
$GPGSV,4,2,14,20,,,31,22,40,235,46,26,80,155,45,27,01,172,*44
$GPGSV,4,3,14,29,17,060,30,31,51,048,52,32,19,125,32,46,24,242,41*75
$GPGSV,4,4,14,48,21,245,41,51,39,220,42*7D
$GPGLL,3708.92468,N,08034.71581,W,102730.00,A,D*71
$GPRMC,102731.00,A,3708.92471,N,08034.71578,W,0.016,,080521,,,D*6E
$GPVTG,,T,,M,0.016,N,0.029,K,D*2A
$GPGGA,102731.00,3708.92471,N,08034.71578,W,2,10,0.92,589.4,M,-33.3,M,,0000*69
$GPGSA,A,3,46,04,16,22,31,32,03,26,29,51,,,1.79,0.92,1.54*0C
$GPGSV,4,1,13,03,44,273,39,04,32,313,40,09,00,310,,16,53,195,47*75
$GPGSV,4,2,13,22,40,235,45,26,80,154,46,27,01,172,,29,17,060,32*78
$GPGSV,4,3,13,31,51,048,51,32,19,125,26,46,24,242,41,48,21,245,41*75
$GPGSV,4,4,13,51,39,220,42*43
$GPGLL,3708.92471,N,08034.71578,W,102731.00,A,D*7E
$GPRMC,102732.00,A,3708.92473,N,08034.71576,W,0.023,,080521,,,D*67
$GPVTG,,T,,M,0.023,N,0.043,K,D*20
$GPGGA,102732.00,3708.92473,N,08034.71576,W,2,10,0.92,589.5,M,-33.3,M,,0000*67
$GPGSA,A,3,46,04,16,22,31,32,03,26,29,51,,,1.79,0.92,1.54*0C
$GPGSV,4,1,14,03,44,273,39,04,32,313,40,09,00,310,,16,53,195,47*72
$GPGSV,4,2,14,19,,,32,22,40,235,45,26,80,154,46,27,01,171,*4F
$GPGSV,4,3,14,29,17,060,32,31,51,048,51,32,19,125,26,46,24,242,41*71
$GPGSV,4,4,14,48,21,245,41,51,39,220,42*7D
$GPGLL,3708.92473,N,08034.71576,W,102732.00,A,D*71
$GPRMC,102733.00,A,3708.92474,N,08034.71573,W,0.021,,080521,,,D*66
$GPVTG,,T,,M,0.021,N,0.038,K,D*2E
$GPGGA,102733.00,3708.92474,N,08034.71573,W,2,10,0.92,589.7,M,-33.3,M,,0000*66
$GPGSA,A,3,46,04,16,22,31,32,03,26,29,51,,,1.79,0.92,1.54*0C
$GPGSV,4,1,13,03,44,273,39,04,32,313,40,09,00,310,,16,53,195,47*75
$GPGSV,4,2,13,22,40,235,45,26,80,154,46,27,01,171,,29,17,060,33*7A
$GPGSV,4,3,13,31,51,048,51,32,19,125,26,46,24,242,41,48,21,245,41*75
$GPGSV,4,4,13,51,39,220,42*43
$GPGLL,3708.92474,N,08034.71573,W,102733.00,A,D*72
$GPRMC,102734.00,A,3708.92476,N,08034.71571,W,0.020,,080521,,,D*60
$GPVTG,,T,,M,0.020,N,0.037,K,D*20
$GPGGA,102734.00,3708.92476,N,08034.71571,W,2,10,0.92,589.9,M,-33.3,M,,0000*6F
$GPGSA,A,3,46,04,16,22,31,32,03,26,29,51,,,1.79,0.92,1.54*0C
$GPGSV,4,1,13,03,44,273,39,04,32,313,40,09,00,310,,16,53,195,47*75
$GPGSV,4,2,13,22,40,235,45,26,80,154,46,27,01,171,,29,17,060,33*7A
$GPGSV,4,3,13,31,51,048,51,32,19,125,25,46,24,242,41,48,21,245,41*76
$GPGSV,4,4,13,51,39,220,42*43
$GPGLL,3708.92476,N,08034.71571,W,102734.00,A,D*75
$GPRMC,102735.00,A,3708.92478,N,08034.71572,W,0.041,,080521,,,D*6B
$GPVTG,,T,,M,0.041,N,0.076,K,D*22
$GPGGA,102735.00,3708.92478,N,08034.71572,W,2,10,0.92,589.9,M,-33.3,M,,0000*63
$GPGSA,A,3,46,04,16,22,31,32,03,26,29,51,,,1.79,0.92,1.53*0B
$GPGSV,4,1,13,03,44,273,38,04,32,313,40,09,00,310,,16,53,195,47*74
$GPGSV,4,2,13,22,40,235,45,26,80,154,46,27,01,171,,29,17,060,34*7D
$GPGSV,4,3,13,31,51,048,51,32,19,125,25,46,24,242,41,48,21,245,41*76
$GPGSV,4,4,13,51,39,220,42*43
$GPGLL,3708.92478,N,08034.71572,W,102735.00,A,D*79
$GPRMC,102736.00,A,3708.92476,N,08034.71572,W,0.019,,080521,,,D*6B
$GPVTG,,T,,M,0.019,N,0.036,K,D*2B
$GPGGA,102736.00,3708.92476,N,08034.71572,W,2,10,0.92,589.9,M,-33.3,M,,0000*6E
$GPGSA,A,3,46,04,16,22,31,32,03,26,29,51,,,1.79,0.92,1.53*0B
$GPGSV,4,1,13,03,44,273,38,04,32,313,40,09,00,310,,16,53,195,47*74
$GPGSV,4,2,13,22,40,235,45,26,80,154,46,27,01,171,,29,17,060,34*7D
$GPGSV,4,3,13,31,51,048,51,32,19,125,25,46,24,242,41,48,21,245,41*76
$GPGSV,4,4,13,51,39,220,42*43
$GPGLL,3708.92476,N,08034.71572,W,102736.00,A,D*74
$GPRMC,102737.00,A,3708.92477,N,08034.71575,W,0.001,,080521,,,D*65
$GPVTG,,T,,M,0.001,N,0.002,K,D*25
$GPGGA,102737.00,3708.92477,N,08034.71575,W,2,10,0.92,589.9,M,-33.3,M,,0000*69
$GPGSA,A,3,46,04,16,22,31,32,03,26,29,51,,,1.79,0.92,1.53*0B
$GPGSV,4,1,14,03,44,273,38,04,32,313,40,09,00,310,,16,53,195,47*73
$GPGSV,4,2,14,17,,,32,22,40,235,45,26,80,154,46,27,01,171,*41
$GPGSV,4,3,14,29,17,060,34,31,51,048,51,32,19,126,25,46,24,242,41*77
$GPGSV,4,4,14,48,21,245,41,51,39,220,42*7D
$GPGLL,3708.92477,N,08034.71575,W,102737.00,A,D*73
$GPRMC,102738.00,A,3708.92476,N,08034.71578,W,0.003,,080521,,,D*64
$GPVTG,,T,,M,0.003,N,0.006,K,D*23
$GPGGA,102738.00,3708.92476,N,08034.71578,W,2,10,0.92,589.8,M,-33.3,M,,0000*6B
$GPGSA,A,3,46,04,16,22,31,32,03,26,29,51,,,1.79,0.92,1.53*0B
$GPGSV,4,1,13,03,44,273,38,04,32,313,40,09,00,310,,16,53,195,47*74
$GPGSV,4,2,13,22,40,235,45,26,80,154,46,27,01,171,,29,17,060,34*7D
$GPGSV,4,3,13,31,51,048,51,32,19,126,24,46,24,242,41,48,21,245,41*74
$GPGSV,4,4,13,51,39,220,42*43
$GPGLL,3708.92476,N,08034.71578,W,102738.00,A,D*70
$GPRMC,102739.00,A,3708.92477,N,08034.71581,W,0.042,,080521,,,D*67
$GPVTG,,T,,M,0.042,N,0.078,K,D*2F
$GPGGA,102739.00,3708.92477,N,08034.71581,W,2,10,0.92,589.7,M,-33.3,M,,0000*62
$GPGSA,A,3,46,04,16,22,31,32,03,26,29,51,,,1.79,0.92,1.53*0B
$GPGSV,4,1,14,03,44,273,38,04,32,313,40,09,00,310,,13,,,29*45
$GPGSV,4,2,14,16,53,195,47,18,,,31,22,40,235,45,26,80,154,46*41
$GPGSV,4,3,14,27,01,171,,29,17,060,34,31,51,048,51,32,19,126,23*77
$GPGSV,4,4,14,46,24,242,41,51,39,220,42*71
$GPGLL,3708.92477,N,08034.71581,W,102739.00,A,D*76
$GPRMC,102740.00,A,3708.92477,N,08034.71583,W,0.029,,080521,,,D*66
$GPVTG,,T,,M,0.029,N,0.053,K,D*2B
$GPGGA,102740.00,3708.92477,N,08034.71583,W,2,10,1.14,589.5,M,-33.3,M,,0000*63
$GPGSA,A,3,46,04,16,22,31,32,03,26,29,51,,,2.09,1.14,1.75*04
$GPGSV,4,1,14,03,44,273,37,04,32,313,40,09,00,310,,15,,,31*45
$GPGSV,4,2,14,16,53,195,47,22,40,235,45,26,80,154,46,27,01,171,*79
$GPGSV,4,3,14,29,17,060,34,31,51,048,51,32,19,126,23,46,24,242,41*71
$GPGSV,4,4,14,48,21,245,41,51,39,220,42*7D
$GPGLL,3708.92477,N,08034.71583,W,102740.00,A,D*7A
$GPRMC,102741.00,A,3708.92476,N,08034.71585,W,0.009,,080521,,,D*62
$GPVTG,,T,,M,0.009,N,0.017,K,D*29
$GPGGA,102741.00,3708.92476,N,08034.71585,W,2,10,1.14,589.3,M,-33.3,M,,0000*63
$GPGSA,A,3,46,04,16,22,31,32,03,26,29,51,,,2.09,1.14,1.75*04
$GPGSV,4,1,13,03,44,273,37,04,32,313,40,09,00,310,,16,53,195,47*7B
$GPGSV,4,2,13,22,40,235,45,26,80,154,47,27,01,171,,29,17,060,34*7C
$GPGSV,4,3,13,31,51,048,51,32,19,126,23,46,24,242,41,48,21,245,41*73
$GPGSV,4,4,13,51,39,220,42*43
$GPGLL,3708.92476,N,08034.71585,W,102741.00,A,D*7C
$GPRMC,102742.00,A,3708.92475,N,08034.71586,W,0.012,,080521,,,D*6B
$GPVTG,,T,,M,0.012,N,0.022,K,D*25
$GPGGA,102742.00,3708.92475,N,08034.71586,W,2,10,1.14,589.2,M,-33.3,M,,0000*61
$GPGSA,A,3,46,04,16,22,31,32,03,26,29,51,,,2.09,1.14,1.75*04
$GPGSV,4,1,13,03,44,273,37,04,32,313,40,09,00,310,,16,53,195,47*7B
$GPGSV,4,2,13,22,40,235,45,26,80,154,47,27,01,171,,29,17,060,34*7C
$GPGSV,4,3,13,31,51,048,51,32,19,126,23,46,24,242,41,48,21,245,41*73
$GPGSV,4,4,13,51,39,220,42*43
$GPGLL,3708.92475,N,08034.71586,W,102742.00,A,D*7F
$GPRMC,102743.00,A,3708.92470,N,08034.71584,W,0.023,,080521,,,D*6F
$GPVTG,,T,,M,0.023,N,0.043,K,D*20
$GPGGA,102743.00,3708.92470,N,08034.71584,W,2,10,1.14,589.1,M,-33.3,M,,0000*64
$GPGSA,A,3,46,04,16,22,31,32,03,26,29,51,,,2.09,1.14,1.75*04
$GPGSV,4,1,13,03,44,273,37,04,32,313,40,09,00,310,,16,53,195,47*7B
$GPGSV,4,2,13,22,40,235,45,26,80,154,47,27,01,171,,29,17,060,33*7B
$GPGSV,4,3,13,31,51,048,52,32,19,126,23,46,24,242,41,48,21,245,40*71
$GPGSV,4,4,13,51,39,220,42*43
$GPGLL,3708.92470,N,08034.71584,W,102743.00,A,D*79
$GPRMC,102744.00,A,3708.92469,N,08034.71585,W,0.036,,080521,,,D*65
$GPVTG,,T,,M,0.036,N,0.067,K,D*22
$GPGGA,102744.00,3708.92469,N,08034.71585,W,2,10,1.14,589.0,M,-33.3,M,,0000*6B
$GPGSA,A,3,46,04,16,22,31,32,03,26,29,51,,,2.09,1.14,1.75*04
$GPGSV,4,1,13,03,44,273,37,04,32,313,40,09,00,310,,16,53,195,47*7B
$GPGSV,4,2,13,22,40,235,45,26,80,154,47,27,01,171,,29,17,060,33*7B
$GPGSV,4,3,13,31,51,048,51,32,19,126,24,46,24,242,41,48,21,245,41*74
$GPGSV,4,4,13,51,39,220,42*43
$GPGLL,3708.92469,N,08034.71585,W,102744.00,A,D*77
$GPRMC,102745.00,A,3708.92466,N,08034.71586,W,0.015,,080521,,,D*69
$GPVTG,,T,,M,0.015,N,0.027,K,D*27
$GPGGA,102745.00,3708.92466,N,08034.71586,W,2,10,1.14,589.0,M,-33.3,M,,0000*66
$GPGSA,A,3,46,04,16,22,31,32,03,26,29,51,,,2.09,1.14,1.75*04
$GPGSV,4,1,13,03,44,273,37,04,32,313,40,09,00,310,,16,53,195,47*7B
$GPGSV,4,2,13,22,40,235,44,26,80,154,47,27,01,171,,29,17,060,33*7A
$GPGSV,4,3,13,31,51,048,51,32,19,126,24,46,24,242,41,48,21,245,41*74
$GPGSV,4,4,13,51,39,220,42*43
$GPGLL,3708.92466,N,08034.71586,W,102745.00,A,D*7A
$GPRMC,102746.00,A,3708.92464,N,08034.71587,W,0.018,,080521,,,D*64
$GPVTG,,T,,M,0.018,N,0.033,K,D*2F
$GPGGA,102746.00,3708.92464,N,08034.71587,W,2,10,1.14,588.9,M,-33.3,M,,0000*6E
$GPGSA,A,3,46,04,16,22,31,32,03,26,29,51,,,2.09,1.14,1.75*04
$GPGSV,4,1,14,03,44,273,37,04,32,313,40,09,00,310,,16,53,195,47*7C
$GPGSV,4,2,14,17,,,28,22,40,235,45,26,80,154,47,27,01,171,*4B
$GPGSV,4,3,14,29,17,060,33,31,51,048,51,32,19,126,23,46,24,242,41*76
$GPGSV,4,4,14,48,21,245,41,51,39,220,42*7D
$GPGLL,3708.92464,N,08034.71587,W,102746.00,A,D*7A
$GPRMC,102747.00,A,3708.92461,N,08034.71588,W,0.006,,080521,,,D*60
$GPVTG,,T,,M,0.006,N,0.010,K,D*21
$GPGGA,102747.00,3708.92461,N,08034.71588,W,2,10,1.14,588.8,M,-33.3,M,,0000*64
$GPGSA,A,3,46,04,16,22,31,32,03,26,29,51,,,2.09,1.14,1.75*04
$GPGSV,4,1,13,03,44,273,37,04,32,313,40,09,00,310,,16,53,195,47*7B
$GPGSV,4,2,13,22,40,235,45,26,80,154,47,27,01,171,,29,17,060,33*7B
$GPGSV,4,3,13,31,51,048,52,32,19,126,23,46,24,242,41,48,21,245,41*70
$GPGSV,4,4,13,51,39,220,42*43
$GPGLL,3708.92461,N,08034.71588,W,102747.00,A,D*71
$GPRMC,102748.00,A,3708.92458,N,08034.71588,W,0.003,,080521,,,D*60
$GPVTG,,T,,M,0.003,N,0.006,K,D*23
